{
    "data": [
        {
            "cidade": "Cruzeiro do Sul",
            "lat": -7.627995199999999,
            "long": -72.6762232,
            "qtd": "20",
            "uf": "AC"
        },
        {
            "cidade": "Rio Branco",
            "lat": -9.975337399999999,
            "long": -68.42932139999999,
            "qtd": "19",
            "uf": "AC"
        },
        {
            "cidade": "Arapiraca",
            "lat": -9.755571999999999,
            "long": -36.6639592,
            "qtd": "26",
            "uf": "AL"
        },
        {
            "cidade": "Batalha",
            "lat": -9.674657,
            "long": -37.1329275,
            "qtd": "1",
            "uf": "AL"
        },
        {
            "cidade": "Macei\u00f3",
            "lat": -9.6498487,
            "long": -35.7089492,
            "qtd": "79",
            "uf": "AL"
        },
        {
            "cidade": "Minador do Negr\u00e3o",
            "lat": -9.3083596,
            "long": -36.8665768,
            "qtd": "1",
            "uf": "AL"
        },
        {
            "cidade": "Palmeira dos \u00cdndios",
            "lat": -9.406106,
            "long": -36.6331433,
            "qtd": "11",
            "uf": "AL"
        },
        {
            "cidade": "Penedo",
            "lat": -10.2889171,
            "long": -36.58396490000001,
            "qtd": "1",
            "uf": "AL"
        },
        {
            "cidade": "Piranhas",
            "lat": -9.5436059,
            "long": -37.745028,
            "qtd": "2",
            "uf": "AL"
        },
        {
            "cidade": "Santana do Ipanema",
            "lat": -9.3704171,
            "long": -37.2483522,
            "qtd": "1",
            "uf": "AL"
        },
        {
            "cidade": "S\u00e3o Miguel dos Campos",
            "lat": -9.7625469,
            "long": -36.1328132,
            "qtd": "29",
            "uf": "AL"
        },
        {
            "cidade": "Teot\u00f4nio Vilela",
            "lat": -9.9084691,
            "long": -36.359772,
            "qtd": "1",
            "uf": "AL"
        },
        {
            "cidade": "Uni\u00e3o dos Palmares",
            "lat": -9.1610344,
            "long": -36.0166255,
            "qtd": "1",
            "uf": "AL"
        },
        {
            "cidade": "Vi\u00e7osa",
            "lat": -9.3740018,
            "long": -36.24194689999999,
            "qtd": "5",
            "uf": "AL"
        },
        {
            "cidade": "Coari",
            "lat": -4.0912758,
            "long": -63.1483401,
            "qtd": "3",
            "uf": "AM"
        },
        {
            "cidade": "Eirunep\u00e9",
            "lat": -6.6618796,
            "long": -69.8674865,
            "qtd": "4",
            "uf": "AM"
        },
        {
            "cidade": "Manacapuru",
            "lat": -3.2897455,
            "long": -60.6320881,
            "qtd": "3",
            "uf": "AM"
        },
        {
            "cidade": "Manaus",
            "lat": -3.1190275,
            "long": -60.0217314,
            "qtd": "86",
            "uf": "AM"
        },
        {
            "cidade": "Parintins",
            "lat": -2.633616,
            "long": -56.7319696,
            "qtd": "5",
            "uf": "AM"
        },
        {
            "cidade": "Presidente Figueiredo",
            "lat": -2.0533403,
            "long": -60.0238349,
            "qtd": "23",
            "uf": "AM"
        },
        {
            "cidade": "Laranjal do Jari",
            "lat": -0.8397631999999999,
            "long": -52.5189943,
            "qtd": "1",
            "uf": "AP"
        },
        {
            "cidade": "Macap\u00e1",
            "lat": 0.0355735,
            "long": -51.070535,
            "qtd": "11",
            "uf": "AP"
        },
        {
            "cidade": "Santana",
            "lat": -0.0371861,
            "long": -51.1727439,
            "qtd": "2",
            "uf": "AP"
        },
        {
            "cidade": "Barreiras",
            "lat": -12.1477483,
            "long": -44.9953475,
            "qtd": "1",
            "uf": "BA"
        },
        {
            "cidade": "Cachoeira",
            "lat": -12.6009889,
            "long": -38.9659394,
            "qtd": "7",
            "uf": "BA"
        },
        {
            "cidade": "Caetit\u00e9",
            "lat": -14.0648657,
            "long": -42.48588669999999,
            "qtd": "41",
            "uf": "BA"
        },
        {
            "cidade": "Camacan",
            "lat": -15.4201038,
            "long": -39.49640369999999,
            "qtd": "2",
            "uf": "BA"
        },
        {
            "cidade": "Cama\u00e7ari",
            "lat": -12.6971776,
            "long": -38.3331983,
            "qtd": "2",
            "uf": "BA"
        },
        {
            "cidade": "Caturama",
            "lat": -13.3299041,
            "long": -42.2909374,
            "qtd": "1",
            "uf": "BA"
        },
        {
            "cidade": "Entre Rios",
            "lat": -11.9441553,
            "long": -38.08417379999999,
            "qtd": "2",
            "uf": "BA"
        },
        {
            "cidade": "Eun\u00e1polis",
            "lat": -16.3717837,
            "long": -39.5818005,
            "qtd": "13",
            "uf": "BA"
        },
        {
            "cidade": "Feira de Santana",
            "lat": -12.2597272,
            "long": -38.9646608,
            "qtd": "19",
            "uf": "BA"
        },
        {
            "cidade": "Firmino Alves",
            "lat": -14.9871201,
            "long": -39.9246186,
            "qtd": "1",
            "uf": "BA"
        },
        {
            "cidade": "Guanambi",
            "lat": -14.2194046,
            "long": -42.7796735,
            "qtd": "3",
            "uf": "BA"
        },
        {
            "cidade": "Ilh\u00e9us",
            "lat": -14.7935051,
            "long": -39.0463797,
            "qtd": "2",
            "uf": "BA"
        },
        {
            "cidade": "Ipia\u00fa",
            "lat": -14.1349424,
            "long": -39.7385835,
            "qtd": "4",
            "uf": "BA"
        },
        {
            "cidade": "Irec\u00ea",
            "lat": -11.3034012,
            "long": -41.8557693,
            "qtd": "12",
            "uf": "BA"
        },
        {
            "cidade": "Itatim",
            "lat": -12.7064081,
            "long": -39.6973656,
            "qtd": "1",
            "uf": "BA"
        },
        {
            "cidade": "Jacobina",
            "lat": -11.1816506,
            "long": -40.5120603,
            "qtd": "12",
            "uf": "BA"
        },
        {
            "cidade": "Jequi\u00e9",
            "lat": -13.8590592,
            "long": -40.0837763,
            "qtd": "34",
            "uf": "BA"
        },
        {
            "cidade": "Juazeiro",
            "lat": -9.431282999999999,
            "long": -40.5078776,
            "qtd": "2",
            "uf": "BA"
        },
        {
            "cidade": "Lauro de Freitas",
            "lat": -12.8820575,
            "long": -38.3148204,
            "qtd": "31",
            "uf": "BA"
        },
        {
            "cidade": "Lic\u00ednio de Almeida",
            "lat": -14.617936,
            "long": -42.4724578,
            "qtd": "1",
            "uf": "BA"
        },
        {
            "cidade": "Morro do Chap\u00e9u",
            "lat": -11.5493505,
            "long": -41.1560657,
            "qtd": "3",
            "uf": "BA"
        },
        {
            "cidade": "Paripiranga",
            "lat": -10.6840029,
            "long": -37.8629798,
            "qtd": "11",
            "uf": "BA"
        },
        {
            "cidade": "Paulo Afonso",
            "lat": -9.587491600000002,
            "long": -38.4008357,
            "qtd": "8",
            "uf": "BA"
        },
        {
            "cidade": "Porto Seguro",
            "lat": -16.4443537,
            "long": -39.0653656,
            "qtd": "34",
            "uf": "BA"
        },
        {
            "cidade": "Prado",
            "lat": -17.3340212,
            "long": -39.2250648,
            "qtd": "15",
            "uf": "BA"
        },
        {
            "cidade": "Salvador",
            "lat": -12.977749,
            "long": -38.5016301,
            "qtd": "269",
            "uf": "BA"
        },
        {
            "cidade": "Santa Maria da Vit\u00f3ria",
            "lat": -13.3855106,
            "long": -44.20199789999999,
            "qtd": "3",
            "uf": "BA"
        },
        {
            "cidade": "Santan\u00f3polis",
            "lat": -12.0256285,
            "long": -38.8655937,
            "qtd": "1",
            "uf": "BA"
        },
        {
            "cidade": "Santo Amaro",
            "lat": -12.5464273,
            "long": -38.7109081,
            "qtd": "6",
            "uf": "BA"
        },
        {
            "cidade": "S\u00e3o Desid\u00e9rio",
            "lat": -12.7570071,
            "long": -45.94438299999999,
            "qtd": "3",
            "uf": "BA"
        },
        {
            "cidade": "Seabra",
            "lat": -12.4175133,
            "long": -41.7692172,
            "qtd": "2",
            "uf": "BA"
        },
        {
            "cidade": "Sebasti\u00e3o Laranjeiras",
            "lat": -14.5785405,
            "long": -43.1359542,
            "qtd": "2",
            "uf": "BA"
        },
        {
            "cidade": "Senhor do Bonfim",
            "lat": -10.4614397,
            "long": -40.1867729,
            "qtd": "8",
            "uf": "BA"
        },
        {
            "cidade": "Serrol\u00e2ndia",
            "lat": -11.4176158,
            "long": -40.2989318,
            "qtd": "1",
            "uf": "BA"
        },
        {
            "cidade": "Sim\u00f5es Filho",
            "lat": -12.7863762,
            "long": -38.4021884,
            "qtd": "4",
            "uf": "BA"
        },
        {
            "cidade": "Teofil\u00e2ndia",
            "lat": -11.4889702,
            "long": -38.9975594,
            "qtd": "1",
            "uf": "BA"
        },
        {
            "cidade": "Valen\u00e7a",
            "lat": -13.3700599,
            "long": -39.0720243,
            "qtd": "6",
            "uf": "BA"
        },
        {
            "cidade": "V\u00e1rzea da Ro\u00e7a",
            "lat": -11.6081174,
            "long": -40.1362757,
            "qtd": "1",
            "uf": "BA"
        },
        {
            "cidade": "V\u00e1rzea do Po\u00e7o",
            "lat": -11.5275205,
            "long": -40.3150454,
            "qtd": "2",
            "uf": "BA"
        },
        {
            "cidade": "Vit\u00f3ria da Conquista",
            "lat": -14.8619237,
            "long": -40.8445346,
            "qtd": "7",
            "uf": "BA"
        },
        {
            "cidade": "Acara\u00fa",
            "lat": -2.897903,
            "long": -40.1192437,
            "qtd": "7",
            "uf": "CE"
        },
        {
            "cidade": "Acopiara",
            "lat": -6.0949221,
            "long": -39.45993,
            "qtd": "4",
            "uf": "CE"
        },
        {
            "cidade": "Alc\u00e2ntaras",
            "lat": -3.5868559,
            "long": -40.5455415,
            "qtd": "2",
            "uf": "CE"
        },
        {
            "cidade": "Altaneira",
            "lat": -6.988451,
            "long": -39.7484115,
            "qtd": "2",
            "uf": "CE"
        },
        {
            "cidade": "Amontada",
            "lat": -3.3618719,
            "long": -39.8308199,
            "qtd": "1",
            "uf": "CE"
        },
        {
            "cidade": "Apuiar\u00e9s",
            "lat": -3.9484516,
            "long": -39.3621196,
            "qtd": "1",
            "uf": "CE"
        },
        {
            "cidade": "Aquiraz",
            "lat": -3.9063032,
            "long": -38.3874882,
            "qtd": "28",
            "uf": "CE"
        },
        {
            "cidade": "Aracati",
            "lat": -4.5612094,
            "long": -37.7688612,
            "qtd": "3",
            "uf": "CE"
        },
        {
            "cidade": "Aracoiaba",
            "lat": -4.3719263,
            "long": -38.8103685,
            "qtd": "5",
            "uf": "CE"
        },
        {
            "cidade": "Assar\u00e9",
            "lat": -6.875198500000001,
            "long": -39.8715949,
            "qtd": "4",
            "uf": "CE"
        },
        {
            "cidade": "Aurora",
            "lat": -6.9431075,
            "long": -38.9675047,
            "qtd": "1",
            "uf": "CE"
        },
        {
            "cidade": "Banabui\u00fa",
            "lat": -5.2253981,
            "long": -38.9459326,
            "qtd": "2",
            "uf": "CE"
        },
        {
            "cidade": "Barbalha",
            "lat": -7.2986432,
            "long": -39.3024503,
            "qtd": "9",
            "uf": "CE"
        },
        {
            "cidade": "Barreira",
            "lat": -4.3183242,
            "long": -38.6110264,
            "qtd": "1",
            "uf": "CE"
        },
        {
            "cidade": "Barroquinha",
            "lat": -3.0199939,
            "long": -41.1343733,
            "qtd": "11",
            "uf": "CE"
        },
        {
            "cidade": "Bela Cruz",
            "lat": -3.0542867,
            "long": -40.1746278,
            "qtd": "1",
            "uf": "CE"
        },
        {
            "cidade": "Camocim",
            "lat": -2.9008418,
            "long": -40.84209999999999,
            "qtd": "9",
            "uf": "CE"
        },
        {
            "cidade": "Campos Sales",
            "lat": -7.0743223,
            "long": -40.37156,
            "qtd": "2",
            "uf": "CE"
        },
        {
            "cidade": "Canind\u00e9",
            "lat": -4.3580865,
            "long": -39.3137855,
            "qtd": "14",
            "uf": "CE"
        },
        {
            "cidade": "Caridade",
            "lat": -4.0962404,
            "long": -39.0566372,
            "qtd": "2",
            "uf": "CE"
        },
        {
            "cidade": "Carir\u00e9",
            "lat": -3.9491202,
            "long": -40.4764866,
            "qtd": "2",
            "uf": "CE"
        },
        {
            "cidade": "Cascavel",
            "lat": -4.132914299999999,
            "long": -38.2471064,
            "qtd": "2",
            "uf": "CE"
        },
        {
            "cidade": "Caucaia",
            "lat": -3.7203049,
            "long": -38.6663911,
            "qtd": "25",
            "uf": "CE"
        },
        {
            "cidade": "Cedro",
            "lat": -6.6041123,
            "long": -39.0586552,
            "qtd": "2",
            "uf": "CE"
        },
        {
            "cidade": "Crate\u00fas",
            "lat": -5.178204,
            "long": -40.6695522,
            "qtd": "8",
            "uf": "CE"
        },
        {
            "cidade": "Crato",
            "lat": -7.229957199999999,
            "long": -39.4122984,
            "qtd": "17",
            "uf": "CE"
        },
        {
            "cidade": "Croat\u00e1",
            "lat": -4.3626835,
            "long": -40.9990597,
            "qtd": "1",
            "uf": "CE"
        },
        {
            "cidade": "Cruz",
            "lat": -2.9219693,
            "long": -40.17581759999999,
            "qtd": "1",
            "uf": "CE"
        },
        {
            "cidade": "Eus\u00e9bio",
            "lat": -3.884188699999999,
            "long": -38.46396319999999,
            "qtd": "9",
            "uf": "CE"
        },
        {
            "cidade": "Farias Brito",
            "lat": -6.9261241,
            "long": -39.5732891,
            "qtd": "10",
            "uf": "CE"
        },
        {
            "cidade": "Forquilha",
            "lat": -3.8053293,
            "long": -40.2675717,
            "qtd": "9",
            "uf": "CE"
        },
        {
            "cidade": "Fortaleza",
            "lat": -3.7327144,
            "long": -38.5269981,
            "qtd": "1203",
            "uf": "CE"
        },
        {
            "cidade": "General Sampaio",
            "lat": -4.050681300000001,
            "long": -39.4489107,
            "qtd": "1",
            "uf": "CE"
        },
        {
            "cidade": "Groa\u00edras",
            "lat": -3.9151938,
            "long": -40.3851258,
            "qtd": "1",
            "uf": "CE"
        },
        {
            "cidade": "Guaraciaba do Norte",
            "lat": -4.1632847,
            "long": -40.7504006,
            "qtd": "5",
            "uf": "CE"
        },
        {
            "cidade": "Horizonte",
            "lat": -4.0998132,
            "long": -38.4948421,
            "qtd": "1",
            "uf": "CE"
        },
        {
            "cidade": "Ic\u00f3",
            "lat": -6.4026236,
            "long": -38.8591633,
            "qtd": "58",
            "uf": "CE"
        },
        {
            "cidade": "Iguatu",
            "lat": -6.3587958,
            "long": -39.29805899999999,
            "qtd": "9",
            "uf": "CE"
        },
        {
            "cidade": "Ipaumirim",
            "lat": -6.789476899999999,
            "long": -38.7185133,
            "qtd": "2",
            "uf": "CE"
        },
        {
            "cidade": "Ipueiras",
            "lat": -4.54253,
            "long": -40.717276,
            "qtd": "4",
            "uf": "CE"
        },
        {
            "cidade": "Irau\u00e7uba",
            "lat": -3.7475743,
            "long": -39.7827051,
            "qtd": "1",
            "uf": "CE"
        },
        {
            "cidade": "Itai\u00e7aba",
            "lat": -4.6775136,
            "long": -37.8224458,
            "qtd": "1",
            "uf": "CE"
        },
        {
            "cidade": "Itaitinga",
            "lat": -3.9715688,
            "long": -38.5276456,
            "qtd": "3",
            "uf": "CE"
        },
        {
            "cidade": "Itapipoca",
            "lat": -3.499706,
            "long": -39.5839241,
            "qtd": "1",
            "uf": "CE"
        },
        {
            "cidade": "Itapi\u00fana",
            "lat": -4.5633851,
            "long": -38.9212128,
            "qtd": "2",
            "uf": "CE"
        },
        {
            "cidade": "Jaguaribe",
            "lat": -5.892758199999999,
            "long": -38.6219755,
            "qtd": "16",
            "uf": "CE"
        },
        {
            "cidade": "Jaguaruana",
            "lat": -4.8378331,
            "long": -37.7828916,
            "qtd": "1",
            "uf": "CE"
        },
        {
            "cidade": "Jijoca de Jericoacoara",
            "lat": -2.8977741,
            "long": -40.451328,
            "qtd": "8",
            "uf": "CE"
        },
        {
            "cidade": "Juazeiro do Norte",
            "lat": -7.2290551,
            "long": -39.3123192,
            "qtd": "43",
            "uf": "CE"
        },
        {
            "cidade": "Juc\u00e1s",
            "lat": -6.5162414,
            "long": -39.5187369,
            "qtd": "15",
            "uf": "CE"
        },
        {
            "cidade": "Lavras da Mangabeira",
            "lat": -6.7557988,
            "long": -38.9661509,
            "qtd": "2",
            "uf": "CE"
        },
        {
            "cidade": "Limoeiro do Norte",
            "lat": -5.1571715,
            "long": -38.0208151,
            "qtd": "9",
            "uf": "CE"
        },
        {
            "cidade": "Maracana\u00fa",
            "lat": -3.8674127,
            "long": -38.6261113,
            "qtd": "51",
            "uf": "CE"
        },
        {
            "cidade": "Maranguape",
            "lat": -3.8829604,
            "long": -38.6775829,
            "qtd": "42",
            "uf": "CE"
        },
        {
            "cidade": "Martin\u00f3pole",
            "lat": -3.2239808,
            "long": -40.6957932,
            "qtd": "6",
            "uf": "CE"
        },
        {
            "cidade": "Massap\u00ea",
            "lat": -3.5240219,
            "long": -40.3426306,
            "qtd": "1",
            "uf": "CE"
        },
        {
            "cidade": "Novo Oriente",
            "lat": -5.536340399999999,
            "long": -40.7731445,
            "qtd": "5",
            "uf": "CE"
        },
        {
            "cidade": "Ocara",
            "lat": -4.5215418,
            "long": -38.5270305,
            "qtd": "7",
            "uf": "CE"
        },
        {
            "cidade": "Pacatuba",
            "lat": -3.9295337,
            "long": -38.60573249999999,
            "qtd": "16",
            "uf": "CE"
        },
        {
            "cidade": "Paraipaba",
            "lat": -3.4376591,
            "long": -39.1481949,
            "qtd": "2",
            "uf": "CE"
        },
        {
            "cidade": "Parambu",
            "lat": -6.212049899999999,
            "long": -40.6924331,
            "qtd": "1",
            "uf": "CE"
        },
        {
            "cidade": "Pedra Branca",
            "lat": -5.4545752,
            "long": -39.7177495,
            "qtd": "10",
            "uf": "CE"
        },
        {
            "cidade": "Pereiro",
            "lat": -6.0553669,
            "long": -38.5060147,
            "qtd": "1",
            "uf": "CE"
        },
        {
            "cidade": "Potiretama",
            "lat": -5.7233918,
            "long": -38.1539515,
            "qtd": "4",
            "uf": "CE"
        },
        {
            "cidade": "Quiterian\u00f3polis",
            "lat": -5.8455954,
            "long": -40.7037282,
            "qtd": "1",
            "uf": "CE"
        },
        {
            "cidade": "Quixeramobim",
            "lat": -5.2915408,
            "long": -39.4035876,
            "qtd": "23",
            "uf": "CE"
        },
        {
            "cidade": "Reden\u00e7\u00e3o",
            "lat": -4.2238817,
            "long": -38.7302215,
            "qtd": "13",
            "uf": "CE"
        },
        {
            "cidade": "Reriutaba",
            "lat": -4.1329003,
            "long": -40.5940565,
            "qtd": "12",
            "uf": "CE"
        },
        {
            "cidade": "Santa Quit\u00e9ria",
            "lat": -4.3253745,
            "long": -40.1527119,
            "qtd": "4",
            "uf": "CE"
        },
        {
            "cidade": "Santana do Acara\u00fa",
            "lat": -3.4605096,
            "long": -40.20784829999999,
            "qtd": "8",
            "uf": "CE"
        },
        {
            "cidade": "S\u00e3o Gon\u00e7alo do Amarante",
            "lat": -3.6072866,
            "long": -38.96838839999999,
            "qtd": "12",
            "uf": "CE"
        },
        {
            "cidade": "Senador S\u00e1",
            "lat": -3.3538275,
            "long": -40.46652820000001,
            "qtd": "1",
            "uf": "CE"
        },
        {
            "cidade": "Sobral",
            "lat": -3.6895919,
            "long": -40.3485423,
            "qtd": "122",
            "uf": "CE"
        },
        {
            "cidade": "Tabuleiro do Norte",
            "lat": -5.244189899999999,
            "long": -38.1285929,
            "qtd": "2",
            "uf": "CE"
        },
        {
            "cidade": "Tau\u00e1",
            "lat": -5.892287,
            "long": -40.2271243,
            "qtd": "3",
            "uf": "CE"
        },
        {
            "cidade": "Teju\u00e7uoca",
            "lat": -3.9884843,
            "long": -39.5789373,
            "qtd": "1",
            "uf": "CE"
        },
        {
            "cidade": "Tiangu\u00e1",
            "lat": -3.7300232,
            "long": -40.9926511,
            "qtd": "1",
            "uf": "CE"
        },
        {
            "cidade": "Ubajara",
            "lat": -3.8530587,
            "long": -40.9183489,
            "qtd": "9",
            "uf": "CE"
        },
        {
            "cidade": "Varjota",
            "lat": -4.1958372,
            "long": -40.4735933,
            "qtd": "9",
            "uf": "CE"
        },
        {
            "cidade": "V\u00e1rzea Alegre",
            "lat": -6.7943447,
            "long": -39.2982254,
            "qtd": "2",
            "uf": "CE"
        },
        {
            "cidade": "\u00c1guas Claras",
            "lat": -15.8372013,
            "long": -48.0258046,
            "qtd": "6",
            "uf": "DF"
        },
        {
            "cidade": "Bras\u00edlia",
            "lat": -15.826691,
            "long": -47.92182039999999,
            "qtd": "89",
            "uf": "DF"
        },
        {
            "cidade": "Ceil\u00e2ndia",
            "lat": -15.821435,
            "long": -48.114201,
            "qtd": "5",
            "uf": "DF"
        },
        {
            "cidade": "Recanto das Emas",
            "lat": -15.9090602,
            "long": -48.0650169,
            "qtd": "3",
            "uf": "DF"
        },
        {
            "cidade": "Riacho Fundo II",
            "lat": -15.8992271,
            "long": -48.0493873,
            "qtd": "2",
            "uf": "DF"
        },
        {
            "cidade": "Samambaia",
            "lat": -15.8705748,
            "long": -48.0902431,
            "qtd": "1",
            "uf": "DF"
        },
        {
            "cidade": "Sobradinho",
            "lat": -15.6580179,
            "long": -47.7925346,
            "qtd": "15",
            "uf": "DF"
        },
        {
            "cidade": "Sudoeste e Octogonal",
            "lat": -15.7950174,
            "long": -47.9267674,
            "qtd": "2",
            "uf": "DF"
        },
        {
            "cidade": "Taguatinga",
            "lat": -15.8107481,
            "long": -48.065751,
            "qtd": "37",
            "uf": "DF"
        },
        {
            "cidade": "Alfredo Chaves",
            "lat": -20.6362063,
            "long": -40.7500672,
            "qtd": "2",
            "uf": "ES"
        },
        {
            "cidade": "Aracruz",
            "lat": -19.8188083,
            "long": -40.2735622,
            "qtd": "23",
            "uf": "ES"
        },
        {
            "cidade": "Cachoeiro de Itapemirim",
            "lat": -20.8467047,
            "long": -41.1202199,
            "qtd": "1",
            "uf": "ES"
        },
        {
            "cidade": "Cariacica",
            "lat": -20.2844662,
            "long": -40.4312584,
            "qtd": "16",
            "uf": "ES"
        },
        {
            "cidade": "Colatina",
            "lat": -19.5262632,
            "long": -40.6351179,
            "qtd": "4",
            "uf": "ES"
        },
        {
            "cidade": "Ecoporanga",
            "lat": -18.3709127,
            "long": -40.8328525,
            "qtd": "1",
            "uf": "ES"
        },
        {
            "cidade": "Guarapari",
            "lat": -20.6741197,
            "long": -40.4997382,
            "qtd": "15",
            "uf": "ES"
        },
        {
            "cidade": "Ibatiba",
            "lat": -20.2351644,
            "long": -41.5090668,
            "qtd": "20",
            "uf": "ES"
        },
        {
            "cidade": "Itarana",
            "lat": -19.8745898,
            "long": -40.875947,
            "qtd": "2",
            "uf": "ES"
        },
        {
            "cidade": "Linhares",
            "lat": -19.4021415,
            "long": -40.0670118,
            "qtd": "23",
            "uf": "ES"
        },
        {
            "cidade": "Manten\u00f3polis",
            "lat": -18.8619015,
            "long": -41.1215853,
            "qtd": "2",
            "uf": "ES"
        },
        {
            "cidade": "Marata\u00edzes",
            "lat": -21.045485,
            "long": -40.8317367,
            "qtd": "2",
            "uf": "ES"
        },
        {
            "cidade": "Marechal Floriano",
            "lat": -20.4112962,
            "long": -40.6760738,
            "qtd": "11",
            "uf": "ES"
        },
        {
            "cidade": "Mimoso do Sul",
            "lat": -21.0625417,
            "long": -41.36334739999999,
            "qtd": "1",
            "uf": "ES"
        },
        {
            "cidade": "Montanha",
            "lat": -18.1255725,
            "long": -40.3662673,
            "qtd": "6",
            "uf": "ES"
        },
        {
            "cidade": "Mucurici",
            "lat": -18.0943095,
            "long": -40.5177257,
            "qtd": "5",
            "uf": "ES"
        },
        {
            "cidade": "Nova Ven\u00e9cia",
            "lat": -18.7074974,
            "long": -40.3956184,
            "qtd": "2",
            "uf": "ES"
        },
        {
            "cidade": "Presidente Kennedy",
            "lat": -21.1010673,
            "long": -41.045155,
            "qtd": "1",
            "uf": "ES"
        },
        {
            "cidade": "Santa Maria de Jetib\u00e1",
            "lat": -20.0257594,
            "long": -40.7443157,
            "qtd": "4",
            "uf": "ES"
        },
        {
            "cidade": "Santa Teresa",
            "lat": -19.9368278,
            "long": -40.5983289,
            "qtd": "11",
            "uf": "ES"
        },
        {
            "cidade": "S\u00e3o Mateus",
            "lat": -18.7002308,
            "long": -40.0633101,
            "qtd": "4",
            "uf": "ES"
        },
        {
            "cidade": "Serra",
            "lat": -20.1228954,
            "long": -40.3054099,
            "qtd": "12",
            "uf": "ES"
        },
        {
            "cidade": "Viana",
            "lat": -20.366875,
            "long": -40.4216659,
            "qtd": "2",
            "uf": "ES"
        },
        {
            "cidade": "Vila Pav\u00e3o",
            "lat": -18.6192783,
            "long": -40.604835,
            "qtd": "1",
            "uf": "ES"
        },
        {
            "cidade": "Vila Velha",
            "lat": -20.3477821,
            "long": -40.2949528,
            "qtd": "24",
            "uf": "ES"
        },
        {
            "cidade": "Vit\u00f3ria",
            "lat": -20.2976178,
            "long": -40.2957768,
            "qtd": "28",
            "uf": "ES"
        },
        {
            "cidade": "\u00c1guas Lindas",
            "lat": -15.7501526,
            "long": -48.2820348,
            "qtd": "10",
            "uf": "GO"
        },
        {
            "cidade": "An\u00e1polis",
            "lat": -16.3286427,
            "long": -48.95343339999999,
            "qtd": "43",
            "uf": "GO"
        },
        {
            "cidade": "Aparecida de Goi\u00e2nia",
            "lat": -16.820257,
            "long": -49.2473044,
            "qtd": "10",
            "uf": "GO"
        },
        {
            "cidade": "Caldas Novas",
            "lat": -17.7444886,
            "long": -48.6250253,
            "qtd": "38",
            "uf": "GO"
        },
        {
            "cidade": "Catura\u00ed",
            "lat": -16.447704,
            "long": -49.4925279,
            "qtd": "1",
            "uf": "GO"
        },
        {
            "cidade": "Formosa",
            "lat": -15.540641,
            "long": -47.33571,
            "qtd": "14",
            "uf": "GO"
        },
        {
            "cidade": "Goian\u00e9sia",
            "lat": -15.3122723,
            "long": -49.11664409999999,
            "qtd": "21",
            "uf": "GO"
        },
        {
            "cidade": "Goi\u00e2nia",
            "lat": -16.6868982,
            "long": -49.2648114,
            "qtd": "111",
            "uf": "GO"
        },
        {
            "cidade": "Guara\u00edta",
            "lat": -15.6321162,
            "long": -50.03025909999999,
            "qtd": "1",
            "uf": "GO"
        },
        {
            "cidade": "Jata\u00ed",
            "lat": -17.8796049,
            "long": -51.7206735,
            "qtd": "6",
            "uf": "GO"
        },
        {
            "cidade": "Morrinhos",
            "lat": -17.7358504,
            "long": -49.1124051,
            "qtd": "3",
            "uf": "GO"
        },
        {
            "cidade": "Piracanjuba",
            "lat": -17.3048476,
            "long": -49.02199770000001,
            "qtd": "1",
            "uf": "GO"
        },
        {
            "cidade": "S\u00e3o Lu\u00eds de Montes Belos",
            "lat": -16.521513,
            "long": -50.3730843,
            "qtd": "6",
            "uf": "GO"
        },
        {
            "cidade": "Urua\u00e7u",
            "lat": -14.5246488,
            "long": -49.1468996,
            "qtd": "3",
            "uf": "GO"
        },
        {
            "cidade": "A\u00e7ail\u00e2ndia",
            "lat": -4.954037899999999,
            "long": -47.5031007,
            "qtd": "9",
            "uf": "MA"
        },
        {
            "cidade": "Bacabal",
            "lat": -4.2221443,
            "long": -44.7855844,
            "qtd": "4",
            "uf": "MA"
        },
        {
            "cidade": "Barra do Corda",
            "lat": -5.5018917,
            "long": -45.2464996,
            "qtd": "9",
            "uf": "MA"
        },
        {
            "cidade": "Boa Vista do Gurupi",
            "lat": -1.7942352,
            "long": -46.3059988,
            "qtd": "1",
            "uf": "MA"
        },
        {
            "cidade": "Brejo",
            "lat": -3.6566004,
            "long": -42.7857583,
            "qtd": "3",
            "uf": "MA"
        },
        {
            "cidade": "Cod\u00f3",
            "lat": -4.4605557,
            "long": -43.88945,
            "qtd": "1",
            "uf": "MA"
        },
        {
            "cidade": "Coelho Neto",
            "lat": -4.2596751,
            "long": -43.0182166,
            "qtd": "3",
            "uf": "MA"
        },
        {
            "cidade": "Coroat\u00e1",
            "lat": -4.055821,
            "long": -44.1720266,
            "qtd": "1",
            "uf": "MA"
        },
        {
            "cidade": "Dom Pedro",
            "lat": -5.0378468,
            "long": -44.4371029,
            "qtd": "6",
            "uf": "MA"
        },
        {
            "cidade": "Graja\u00fa",
            "lat": -5.8248093,
            "long": -46.1594921,
            "qtd": "1",
            "uf": "MA"
        },
        {
            "cidade": "Imperatriz",
            "lat": -5.5205508,
            "long": -47.4718408,
            "qtd": "1",
            "uf": "MA"
        },
        {
            "cidade": "Loreto",
            "lat": -7.257342500000001,
            "long": -45.2243578,
            "qtd": "2",
            "uf": "MA"
        },
        {
            "cidade": "Mat\u00f5es",
            "lat": -5.5222753,
            "long": -43.20381,
            "qtd": "5",
            "uf": "MA"
        },
        {
            "cidade": "Morros",
            "lat": -2.864761,
            "long": -44.0388976,
            "qtd": "1",
            "uf": "MA"
        },
        {
            "cidade": "Pedreiras",
            "lat": -4.5706533,
            "long": -44.6037906,
            "qtd": "4",
            "uf": "MA"
        },
        {
            "cidade": "Pindar\u00e9 Mirim",
            "lat": -3.6539901,
            "long": -45.4309775,
            "qtd": "14",
            "uf": "MA"
        },
        {
            "cidade": "Porto Franco",
            "lat": -6.340382099999999,
            "long": -47.3961372,
            "qtd": "2",
            "uf": "MA"
        },
        {
            "cidade": "Presidente Dutra",
            "lat": -5.2900794,
            "long": -44.4955672,
            "qtd": "13",
            "uf": "MA"
        },
        {
            "cidade": "Ros\u00e1rio",
            "lat": -2.9409007,
            "long": -44.2494291,
            "qtd": "2",
            "uf": "MA"
        },
        {
            "cidade": "Santa In\u00eas",
            "lat": -3.6644286,
            "long": -45.3839708,
            "qtd": "12",
            "uf": "MA"
        },
        {
            "cidade": "S\u00e3o Bernardo",
            "lat": -3.3709268,
            "long": -42.41864349999999,
            "qtd": "1",
            "uf": "MA"
        },
        {
            "cidade": "S\u00e3o Jo\u00e3o dos Patos",
            "lat": -6.493936,
            "long": -43.7040176,
            "qtd": "6",
            "uf": "MA"
        },
        {
            "cidade": "S\u00e3o Jos\u00e9 de Ribamar",
            "lat": -2.4769818,
            "long": -44.1945659,
            "qtd": "23",
            "uf": "MA"
        },
        {
            "cidade": "S\u00e3o Lu\u00eds",
            "lat": -2.5391099,
            "long": -44.28290459999999,
            "qtd": "33",
            "uf": "MA"
        },
        {
            "cidade": "S\u00e3o Roberto",
            "lat": -5.0145414,
            "long": -45.0186548,
            "qtd": "2",
            "uf": "MA"
        },
        {
            "cidade": "Timon",
            "lat": -5.1045734,
            "long": -42.8289187,
            "qtd": "2",
            "uf": "MA"
        },
        {
            "cidade": "Alfenas",
            "lat": -21.4245379,
            "long": -45.9470255,
            "qtd": "2",
            "uf": "MG"
        },
        {
            "cidade": "Alpin\u00f3polis",
            "lat": -20.860856,
            "long": -46.3865574,
            "qtd": "1",
            "uf": "MG"
        },
        {
            "cidade": "Alterosa",
            "lat": -21.2568548,
            "long": -46.1420737,
            "qtd": "11",
            "uf": "MG"
        },
        {
            "cidade": "Alvin\u00f3polis",
            "lat": -20.10761,
            "long": -43.0574762,
            "qtd": "1",
            "uf": "MG"
        },
        {
            "cidade": "Andradas",
            "lat": -22.0738291,
            "long": -46.5547852,
            "qtd": "3",
            "uf": "MG"
        },
        {
            "cidade": "Araguari",
            "lat": -18.6459014,
            "long": -48.1979841,
            "qtd": "2",
            "uf": "MG"
        },
        {
            "cidade": "Areado",
            "lat": -21.357789,
            "long": -46.1496185,
            "qtd": "12",
            "uf": "MG"
        },
        {
            "cidade": "Arinos",
            "lat": -15.9118937,
            "long": -46.1039976,
            "qtd": "1",
            "uf": "MG"
        },
        {
            "cidade": "Bambu\u00ed",
            "lat": -20.0154172,
            "long": -45.976383,
            "qtd": "10",
            "uf": "MG"
        },
        {
            "cidade": "Bandeira do Sul",
            "lat": -21.7287997,
            "long": -46.3860492,
            "qtd": "1",
            "uf": "MG"
        },
        {
            "cidade": "Bar\u00e3o de Cocais",
            "lat": -19.9409449,
            "long": -43.48131859999999,
            "qtd": "2",
            "uf": "MG"
        },
        {
            "cidade": "Barbacena",
            "lat": -21.2219344,
            "long": -43.7706811,
            "qtd": "24",
            "uf": "MG"
        },
        {
            "cidade": "Belo Horizonte",
            "lat": -19.9166813,
            "long": -43.9344931,
            "qtd": "75",
            "uf": "MG"
        },
        {
            "cidade": "Betim",
            "lat": -19.9673078,
            "long": -44.2011904,
            "qtd": "22",
            "uf": "MG"
        },
        {
            "cidade": "Bias Fortes",
            "lat": -21.605913,
            "long": -43.7578641,
            "qtd": "1",
            "uf": "MG"
        },
        {
            "cidade": "Bicas",
            "lat": -21.7171886,
            "long": -43.0628041,
            "qtd": "6",
            "uf": "MG"
        },
        {
            "cidade": "Bom Jesus do Amparo",
            "lat": -19.7346409,
            "long": -43.4644802,
            "qtd": "2",
            "uf": "MG"
        },
        {
            "cidade": "Cabo Verde",
            "lat": -21.491587,
            "long": -46.400872,
            "qtd": "7",
            "uf": "MG"
        },
        {
            "cidade": "Cachoeira de Minas",
            "lat": -22.354255,
            "long": -45.7793522,
            "qtd": "3",
            "uf": "MG"
        },
        {
            "cidade": "Caet\u00e9",
            "lat": -19.8852042,
            "long": -43.6623819,
            "qtd": "5",
            "uf": "MG"
        },
        {
            "cidade": "Cambuquira",
            "lat": -21.8550137,
            "long": -45.2890798,
            "qtd": "2",
            "uf": "MG"
        },
        {
            "cidade": "Campestre",
            "lat": -21.7101401,
            "long": -46.2489873,
            "qtd": "6",
            "uf": "MG"
        },
        {
            "cidade": "Carangola",
            "lat": -20.7314751,
            "long": -42.0299263,
            "qtd": "1",
            "uf": "MG"
        },
        {
            "cidade": "Carmo de Minas",
            "lat": -22.1212623,
            "long": -45.1324171,
            "qtd": "1",
            "uf": "MG"
        },
        {
            "cidade": "Caxambu",
            "lat": -21.96324,
            "long": -44.9440129,
            "qtd": "3",
            "uf": "MG"
        },
        {
            "cidade": "Cipot\u00e2nea",
            "lat": -20.907222,
            "long": -43.34877609999999,
            "qtd": "2",
            "uf": "MG"
        },
        {
            "cidade": "Coimbra",
            "lat": -20.8412518,
            "long": -42.7955185,
            "qtd": "9",
            "uf": "MG"
        },
        {
            "cidade": "Concei\u00e7\u00e3o da Barra de Minas",
            "lat": -21.1282874,
            "long": -44.4721213,
            "qtd": "1",
            "uf": "MG"
        },
        {
            "cidade": "Conselheiro Lafaiete",
            "lat": -20.6639305,
            "long": -43.7850227,
            "qtd": "2",
            "uf": "MG"
        },
        {
            "cidade": "Contagem",
            "lat": -19.9161508,
            "long": -44.0808763,
            "qtd": "15",
            "uf": "MG"
        },
        {
            "cidade": "Coronel Fabriciano",
            "lat": -19.5190218,
            "long": -42.62825369999999,
            "qtd": "3",
            "uf": "MG"
        },
        {
            "cidade": "Coronel Xavier Chaves",
            "lat": -21.0233892,
            "long": -44.2234054,
            "qtd": "6",
            "uf": "MG"
        },
        {
            "cidade": "Curvelo",
            "lat": -18.7532032,
            "long": -44.4306682,
            "qtd": "1",
            "uf": "MG"
        },
        {
            "cidade": "Diamantina",
            "lat": -18.1759901,
            "long": -43.7142484,
            "qtd": "1",
            "uf": "MG"
        },
        {
            "cidade": "Divin\u00f3polis",
            "lat": -20.103444,
            "long": -44.9716724,
            "qtd": "11",
            "uf": "MG"
        },
        {
            "cidade": "Entre Rios de Minas",
            "lat": -20.6685463,
            "long": -44.0666376,
            "qtd": "1",
            "uf": "MG"
        },
        {
            "cidade": "Extrema",
            "lat": -22.8564961,
            "long": -46.3259721,
            "qtd": "1",
            "uf": "MG"
        },
        {
            "cidade": "Florestal",
            "lat": -19.8885078,
            "long": -44.432162,
            "qtd": "4",
            "uf": "MG"
        },
        {
            "cidade": "Formiga",
            "lat": -20.4605964,
            "long": -45.4281045,
            "qtd": "1",
            "uf": "MG"
        },
        {
            "cidade": "Fortaleza de Minas",
            "lat": -20.9056243,
            "long": -46.7671967,
            "qtd": "4",
            "uf": "MG"
        },
        {
            "cidade": "Frutal",
            "lat": -19.9981166,
            "long": -48.9605972,
            "qtd": "5",
            "uf": "MG"
        },
        {
            "cidade": "Governador Valadares",
            "lat": -18.8549317,
            "long": -41.95592329999999,
            "qtd": "43",
            "uf": "MG"
        },
        {
            "cidade": "Gr\u00e3o Mogol",
            "lat": -16.5653347,
            "long": -42.8932343,
            "qtd": "1",
            "uf": "MG"
        },
        {
            "cidade": "Guanh\u00e3es",
            "lat": -18.7770104,
            "long": -42.9380462,
            "qtd": "1",
            "uf": "MG"
        },
        {
            "cidade": "Guap\u00e9",
            "lat": -20.7628892,
            "long": -45.9161529,
            "qtd": "12",
            "uf": "MG"
        },
        {
            "cidade": "Guaran\u00e9sia",
            "lat": -21.2953757,
            "long": -46.7976849,
            "qtd": "3",
            "uf": "MG"
        },
        {
            "cidade": "Guaxup\u00e9",
            "lat": -21.30817,
            "long": -46.7165409,
            "qtd": "2",
            "uf": "MG"
        },
        {
            "cidade": "Ijaci",
            "lat": -21.1743481,
            "long": -44.9235557,
            "qtd": "2",
            "uf": "MG"
        },
        {
            "cidade": "Ilic\u00ednea",
            "lat": -20.9382895,
            "long": -45.8273054,
            "qtd": "5",
            "uf": "MG"
        },
        {
            "cidade": "Inconfidentes",
            "lat": -22.3180646,
            "long": -46.3233576,
            "qtd": "2",
            "uf": "MG"
        },
        {
            "cidade": "Ipatinga",
            "lat": -19.4691377,
            "long": -42.5489888,
            "qtd": "70",
            "uf": "MG"
        },
        {
            "cidade": "Itabirito",
            "lat": -20.2473574,
            "long": -43.8026539,
            "qtd": "4",
            "uf": "MG"
        },
        {
            "cidade": "Itajub\u00e1",
            "lat": -22.4292698,
            "long": -45.4591388,
            "qtd": "35",
            "uf": "MG"
        },
        {
            "cidade": "Itapagipe",
            "lat": -19.9033506,
            "long": -49.3660142,
            "qtd": "9",
            "uf": "MG"
        },
        {
            "cidade": "Ita\u00fana",
            "lat": -20.0446857,
            "long": -44.5878439,
            "qtd": "19",
            "uf": "MG"
        },
        {
            "cidade": "Janu\u00e1ria",
            "lat": -15.4806094,
            "long": -44.3642956,
            "qtd": "1",
            "uf": "MG"
        },
        {
            "cidade": "Jo\u00e3o Monlevade",
            "lat": -19.8083838,
            "long": -43.1727752,
            "qtd": "2",
            "uf": "MG"
        },
        {
            "cidade": "Juiz de Fora",
            "lat": -21.7624237,
            "long": -43.3433999,
            "qtd": "23",
            "uf": "MG"
        },
        {
            "cidade": "Lima Duarte",
            "lat": -21.840867,
            "long": -43.7927537,
            "qtd": "2",
            "uf": "MG"
        },
        {
            "cidade": "Manhua\u00e7u",
            "lat": -20.2560426,
            "long": -42.0286179,
            "qtd": "7",
            "uf": "MG"
        },
        {
            "cidade": "Mantena",
            "lat": -18.7765523,
            "long": -40.9877527,
            "qtd": "4",
            "uf": "MG"
        },
        {
            "cidade": "Maria da F\u00e9",
            "lat": -22.3070401,
            "long": -45.3774267,
            "qtd": "2",
            "uf": "MG"
        },
        {
            "cidade": "Mariana",
            "lat": -20.3652719,
            "long": -43.4150073,
            "qtd": "1",
            "uf": "MG"
        },
        {
            "cidade": "Matip\u00f3",
            "lat": -20.2848029,
            "long": -42.341568,
            "qtd": "5",
            "uf": "MG"
        },
        {
            "cidade": "Minas Novas",
            "lat": -17.2185101,
            "long": -42.59095070000001,
            "qtd": "2",
            "uf": "MG"
        },
        {
            "cidade": "Monte Carmelo",
            "lat": -18.7247843,
            "long": -47.50474010000001,
            "qtd": "8",
            "uf": "MG"
        },
        {
            "cidade": "Monte Si\u00e3o",
            "lat": -22.4160196,
            "long": -46.4970116,
            "qtd": "5",
            "uf": "MG"
        },
        {
            "cidade": "Muzambinho",
            "lat": -21.3712593,
            "long": -46.5232197,
            "qtd": "6",
            "uf": "MG"
        },
        {
            "cidade": "Nova Lima",
            "lat": -20.1089859,
            "long": -43.9055155,
            "qtd": "3",
            "uf": "MG"
        },
        {
            "cidade": "Nova Serrana",
            "lat": -19.8710802,
            "long": -44.9806365,
            "qtd": "1",
            "uf": "MG"
        },
        {
            "cidade": "Novo Cruzeiro",
            "lat": -17.4328946,
            "long": -41.9989718,
            "qtd": "4",
            "uf": "MG"
        },
        {
            "cidade": "Oliveira",
            "lat": -20.6984299,
            "long": -44.8256777,
            "qtd": "5",
            "uf": "MG"
        },
        {
            "cidade": "Ouro Branco",
            "lat": -9.1622013,
            "long": -37.3587137,
            "qtd": "10",
            "uf": "MG"
        },
        {
            "cidade": "Ouro Preto",
            "lat": -20.3855743,
            "long": -43.5035777,
            "qtd": "1",
            "uf": "MG"
        },
        {
            "cidade": "Padre Carvalho",
            "lat": -16.2887356,
            "long": -42.57056740000001,
            "qtd": "1",
            "uf": "MG"
        },
        {
            "cidade": "Par\u00e1 de Minas",
            "lat": -19.8649807,
            "long": -44.6016372,
            "qtd": "6",
            "uf": "MG"
        },
        {
            "cidade": "Passa Quatro",
            "lat": -22.3878834,
            "long": -44.9661119,
            "qtd": "10",
            "uf": "MG"
        },
        {
            "cidade": "Passa Tempo",
            "lat": -20.6544017,
            "long": -44.49305469999999,
            "qtd": "6",
            "uf": "MG"
        },
        {
            "cidade": "Passos",
            "lat": -20.7221434,
            "long": -46.6133353,
            "qtd": "4",
            "uf": "MG"
        },
        {
            "cidade": "Patos de Minas",
            "lat": -18.5872541,
            "long": -46.5147373,
            "qtd": "10",
            "uf": "MG"
        },
        {
            "cidade": "Piracema",
            "lat": -20.5291465,
            "long": -44.4181786,
            "qtd": "6",
            "uf": "MG"
        },
        {
            "cidade": "Pirapora",
            "lat": -17.3488128,
            "long": -44.9468323,
            "qtd": "6",
            "uf": "MG"
        },
        {
            "cidade": "Piumhi",
            "lat": -20.4742488,
            "long": -45.9619861,
            "qtd": "5",
            "uf": "MG"
        },
        {
            "cidade": "Po\u00e7os de Caldas",
            "lat": -21.7695566,
            "long": -46.5547852,
            "qtd": "28",
            "uf": "MG"
        },
        {
            "cidade": "Porteirinha",
            "lat": -15.7433757,
            "long": -43.0275353,
            "qtd": "10",
            "uf": "MG"
        },
        {
            "cidade": "Pouso Alegre",
            "lat": -22.2480373,
            "long": -45.9420118,
            "qtd": "15",
            "uf": "MG"
        },
        {
            "cidade": "Prudente de Morais",
            "lat": -19.4752321,
            "long": -44.1590819,
            "qtd": "1",
            "uf": "MG"
        },
        {
            "cidade": "Resende Costa",
            "lat": -20.9233284,
            "long": -44.2378607,
            "qtd": "4",
            "uf": "MG"
        },
        {
            "cidade": "Ribeir\u00e3o das Neves",
            "lat": -19.7619024,
            "long": -44.0853572,
            "qtd": "11",
            "uf": "MG"
        },
        {
            "cidade": "Rio Parana\u00edba",
            "lat": -19.2263203,
            "long": -46.2857516,
            "qtd": "6",
            "uf": "MG"
        },
        {
            "cidade": "Rit\u00e1polis",
            "lat": -21.025634,
            "long": -44.3237755,
            "qtd": "1",
            "uf": "MG"
        },
        {
            "cidade": "Sabar\u00e1",
            "lat": -19.8838287,
            "long": -43.8534085,
            "qtd": "9",
            "uf": "MG"
        },
        {
            "cidade": "Santa Luzia",
            "lat": -19.7878811,
            "long": -43.9299434,
            "qtd": "5",
            "uf": "MG"
        },
        {
            "cidade": "Santa Maria de Itabira",
            "lat": -19.4517591,
            "long": -43.1141927,
            "qtd": "4",
            "uf": "MG"
        },
        {
            "cidade": "Santa Rita de Caldas",
            "lat": -22.0294441,
            "long": -46.33273390000001,
            "qtd": "2",
            "uf": "MG"
        },
        {
            "cidade": "Santa Rita do Sapuca\u00ed",
            "lat": -22.2522012,
            "long": -45.7036388,
            "qtd": "1",
            "uf": "MG"
        },
        {
            "cidade": "Santa Vit\u00f3ria",
            "lat": -18.8472376,
            "long": -50.1239761,
            "qtd": "1",
            "uf": "MG"
        },
        {
            "cidade": "Santo Ant\u00f4nio do Grama",
            "lat": -20.3181184,
            "long": -42.6095239,
            "qtd": "3",
            "uf": "MG"
        },
        {
            "cidade": "Santo Ant\u00f4nio do Monte",
            "lat": -20.0865863,
            "long": -45.2959811,
            "qtd": "1",
            "uf": "MG"
        },
        {
            "cidade": "Santo Ant\u00f4nio do Retiro",
            "lat": -15.3412107,
            "long": -42.6243449,
            "qtd": "1",
            "uf": "MG"
        },
        {
            "cidade": "S\u00e3o Gon\u00e7alo do Rio Abaixo",
            "lat": "",
            "long": "",
            "qtd": "1",
            "uf": "MG"
        },
        {
            "cidade": "S\u00e3o Jo\u00e3o del Rei",
            "lat": -21.1315334,
            "long": -44.2530444,
            "qtd": "6",
            "uf": "MG"
        },
        {
            "cidade": "S\u00e3o Jo\u00e3o Evangelista",
            "lat": -18.5484871,
            "long": -42.7658727,
            "qtd": "19",
            "uf": "MG"
        },
        {
            "cidade": "S\u00e3o Louren\u00e7o",
            "lat": -22.1166009,
            "long": -45.05294199999999,
            "qtd": "7",
            "uf": "MG"
        },
        {
            "cidade": "S\u00e3o Miguel do Anta",
            "lat": -20.7063652,
            "long": -42.719159,
            "qtd": "1",
            "uf": "MG"
        },
        {
            "cidade": "S\u00e3o Sebasti\u00e3o do Para\u00edso",
            "lat": -20.9170859,
            "long": -46.9841444,
            "qtd": "2",
            "uf": "MG"
        },
        {
            "cidade": "Taiobeiras",
            "lat": -15.8142935,
            "long": -42.227378,
            "qtd": "4",
            "uf": "MG"
        },
        {
            "cidade": "Te\u00f3filo Otoni",
            "lat": -17.8600089,
            "long": -41.5091042,
            "qtd": "11",
            "uf": "MG"
        },
        {
            "cidade": "Tim\u00f3teo",
            "lat": -19.581728,
            "long": -42.6476145,
            "qtd": "11",
            "uf": "MG"
        },
        {
            "cidade": "Tr\u00eas Cora\u00e7\u00f5es",
            "lat": -21.6946622,
            "long": -45.2511765,
            "qtd": "2",
            "uf": "MG"
        },
        {
            "cidade": "Tr\u00eas Pontas",
            "lat": -21.3671499,
            "long": -45.50989879999999,
            "qtd": "1",
            "uf": "MG"
        },
        {
            "cidade": "Turvol\u00e2ndia",
            "lat": -21.8755659,
            "long": -45.7871466,
            "qtd": "1",
            "uf": "MG"
        },
        {
            "cidade": "Ub\u00e1",
            "lat": -21.120123,
            "long": -42.9426188,
            "qtd": "14",
            "uf": "MG"
        },
        {
            "cidade": "Uberaba",
            "lat": -19.7473668,
            "long": -47.93915399999999,
            "qtd": "5",
            "uf": "MG"
        },
        {
            "cidade": "Uberl\u00e2ndia",
            "lat": -18.9127534,
            "long": -48.275484,
            "qtd": "51",
            "uf": "MG"
        },
        {
            "cidade": "Varginha",
            "lat": -21.5566617,
            "long": -45.4270897,
            "qtd": "3",
            "uf": "MG"
        },
        {
            "cidade": "Vespasiano",
            "lat": -19.6888097,
            "long": -43.9243776,
            "qtd": "3",
            "uf": "MG"
        },
        {
            "cidade": "Vi\u00e7osa",
            "lat": -20.7473931,
            "long": -42.8832763,
            "qtd": "37",
            "uf": "MG"
        },
        {
            "cidade": "Virg\u00ednia",
            "lat": -22.3317942,
            "long": -45.0905303,
            "qtd": "1",
            "uf": "MG"
        },
        {
            "cidade": "Visconde do Rio Branco",
            "lat": -21.013792,
            "long": -42.8376099,
            "qtd": "3",
            "uf": "MG"
        },
        {
            "cidade": "Wenceslau Braz",
            "lat": -22.5350926,
            "long": -45.3607769,
            "qtd": "3",
            "uf": "MG"
        },
        {
            "cidade": "Aquidauana",
            "lat": -20.46526,
            "long": -55.78509589999999,
            "qtd": "1",
            "uf": "MS"
        },
        {
            "cidade": "Bela Vista",
            "lat": -22.1077832,
            "long": -56.5268052,
            "qtd": "1",
            "uf": "MS"
        },
        {
            "cidade": "Campo Grande",
            "lat": -20.4697105,
            "long": -54.6201211,
            "qtd": "26",
            "uf": "MS"
        },
        {
            "cidade": "Corumb\u00e1",
            "lat": -19.0081688,
            "long": -57.65155029999999,
            "qtd": "1",
            "uf": "MS"
        },
        {
            "cidade": "Costa Rica",
            "lat": -18.5305058,
            "long": -53.1437427,
            "qtd": "1",
            "uf": "MS"
        },
        {
            "cidade": "Dourados",
            "lat": -22.2272034,
            "long": -54.82912589999999,
            "qtd": "6",
            "uf": "MS"
        },
        {
            "cidade": "Guia Lopes da Laguna",
            "lat": -21.4588233,
            "long": -56.1121919,
            "qtd": "2",
            "uf": "MS"
        },
        {
            "cidade": "Itaquira\u00ed",
            "lat": -23.4778357,
            "long": -54.1838273,
            "qtd": "4",
            "uf": "MS"
        },
        {
            "cidade": "Ivinhema",
            "lat": -22.3050245,
            "long": -53.8188409,
            "qtd": "3",
            "uf": "MS"
        },
        {
            "cidade": "Jaraguari",
            "lat": -20.2587414,
            "long": -54.3467152,
            "qtd": "1",
            "uf": "MS"
        },
        {
            "cidade": "Nova Andradina",
            "lat": -22.2478385,
            "long": -53.3480897,
            "qtd": "5",
            "uf": "MS"
        },
        {
            "cidade": "Parana\u00edba",
            "lat": -19.67511,
            "long": -51.1913338,
            "qtd": "1",
            "uf": "MS"
        },
        {
            "cidade": "Tr\u00eas Lagoas",
            "lat": -20.788203,
            "long": -51.7029788,
            "qtd": "18",
            "uf": "MS"
        },
        {
            "cidade": "Alta Floresta",
            "lat": -9.8672231,
            "long": -56.0870033,
            "qtd": "3",
            "uf": "MT"
        },
        {
            "cidade": "Alto Gar\u00e7as",
            "lat": -16.9479959,
            "long": -53.52814799999999,
            "qtd": "1",
            "uf": "MT"
        },
        {
            "cidade": "Barra do Gar\u00e7as",
            "lat": -15.8916202,
            "long": -52.2618826,
            "qtd": "6",
            "uf": "MT"
        },
        {
            "cidade": "C\u00e1ceres",
            "lat": -16.0671623,
            "long": -57.6827286,
            "qtd": "10",
            "uf": "MT"
        },
        {
            "cidade": "Col\u00edder",
            "lat": -10.8036511,
            "long": -55.45542690000001,
            "qtd": "1",
            "uf": "MT"
        },
        {
            "cidade": "Confresa",
            "lat": -10.6576304,
            "long": -51.5705274,
            "qtd": "6",
            "uf": "MT"
        },
        {
            "cidade": "Cuiab\u00e1",
            "lat": -15.6014109,
            "long": -56.0978917,
            "qtd": "29",
            "uf": "MT"
        },
        {
            "cidade": "Itiquira",
            "lat": -17.3646744,
            "long": -54.9611836,
            "qtd": "9",
            "uf": "MT"
        },
        {
            "cidade": "Lucas do Rio Verde",
            "lat": -13.064847,
            "long": -55.91932139999999,
            "qtd": "4",
            "uf": "MT"
        },
        {
            "cidade": "Nova Mutum",
            "lat": -13.8210543,
            "long": -56.0851599,
            "qtd": "23",
            "uf": "MT"
        },
        {
            "cidade": "Paranatinga",
            "lat": -13.3906941,
            "long": -54.25931180000001,
            "qtd": "2",
            "uf": "MT"
        },
        {
            "cidade": "Pontes e Lacerda",
            "lat": -15.2334749,
            "long": -59.3285193,
            "qtd": "51",
            "uf": "MT"
        },
        {
            "cidade": "Poxor\u00e9o",
            "lat": -15.8414488,
            "long": -54.38875969999999,
            "qtd": "2",
            "uf": "MT"
        },
        {
            "cidade": "Primavera do Leste",
            "lat": -15.5617496,
            "long": -54.2961168,
            "qtd": "1",
            "uf": "MT"
        },
        {
            "cidade": "Rondon\u00f3polis",
            "lat": -16.465423,
            "long": -54.6387934,
            "qtd": "11",
            "uf": "MT"
        },
        {
            "cidade": "Sinop",
            "lat": -11.8608456,
            "long": -55.5095451,
            "qtd": "1",
            "uf": "MT"
        },
        {
            "cidade": "Sorriso",
            "lat": -12.5467889,
            "long": -55.7265293,
            "qtd": "2",
            "uf": "MT"
        },
        {
            "cidade": "Uni\u00e3o do Sul",
            "lat": "",
            "long": "",
            "qtd": "5",
            "uf": "MT"
        },
        {
            "cidade": "Ananindeua",
            "lat": -1.3650671,
            "long": -48.3746372,
            "qtd": "15",
            "uf": "PA"
        },
        {
            "cidade": "Bel\u00e9m",
            "lat": -1.4557292,
            "long": -48.4901785,
            "qtd": "133",
            "uf": "PA"
        },
        {
            "cidade": "Camet\u00e1",
            "lat": -2.2414892,
            "long": -49.4984804,
            "qtd": "5",
            "uf": "PA"
        },
        {
            "cidade": "Cana\u00e3 dos Caraj\u00e1s",
            "lat": -6.529973399999999,
            "long": -49.85165259999999,
            "qtd": "9",
            "uf": "PA"
        },
        {
            "cidade": "Capit\u00e3o Po\u00e7o",
            "lat": -1.7482133,
            "long": -47.0633163,
            "qtd": "1",
            "uf": "PA"
        },
        {
            "cidade": "Itaituba",
            "lat": -4.2670701,
            "long": -55.99311729999999,
            "qtd": "7",
            "uf": "PA"
        },
        {
            "cidade": "Juruti",
            "lat": -2.5131435,
            "long": -56.1749379,
            "qtd": "1",
            "uf": "PA"
        },
        {
            "cidade": "Oriximin\u00e1",
            "lat": -1.7618311,
            "long": -55.86381549999999,
            "qtd": "10",
            "uf": "PA"
        },
        {
            "cidade": "Parauapebas",
            "lat": -6.0687491,
            "long": -49.9035843,
            "qtd": "2",
            "uf": "PA"
        },
        {
            "cidade": "Santa Luzia do Par\u00e1",
            "lat": -1.5220326,
            "long": -46.901112,
            "qtd": "1",
            "uf": "PA"
        },
        {
            "cidade": "Santar\u00e9m",
            "lat": -2.4506291,
            "long": -54.7009228,
            "qtd": "32",
            "uf": "PA"
        },
        {
            "cidade": "S\u00e3o Sebasti\u00e3o da Boa Vista",
            "lat": -1.4260091,
            "long": -49.6503106,
            "qtd": "2",
            "uf": "PA"
        },
        {
            "cidade": "Tail\u00e2ndia",
            "lat": -2.9381642,
            "long": -48.9510857,
            "qtd": "15",
            "uf": "PA"
        },
        {
            "cidade": "Tom\u00e9 A\u00e7u",
            "lat": -2.4183942,
            "long": -48.1545546,
            "qtd": "1",
            "uf": "PA"
        },
        {
            "cidade": "Tucuru\u00ed",
            "lat": -3.7670371,
            "long": -49.6702126,
            "qtd": "8",
            "uf": "PA"
        },
        {
            "cidade": "Alhandra",
            "lat": -7.4327067,
            "long": -34.9115988,
            "qtd": "2",
            "uf": "PB"
        },
        {
            "cidade": "Aroeiras",
            "lat": -7.545320299999999,
            "long": -35.7063659,
            "qtd": "1",
            "uf": "PB"
        },
        {
            "cidade": "Bananeiras",
            "lat": -6.6834044,
            "long": -35.5876697,
            "qtd": "1",
            "uf": "PB"
        },
        {
            "cidade": "Cabedelo",
            "lat": -7.0402624,
            "long": -34.8430098,
            "qtd": "10",
            "uf": "PB"
        },
        {
            "cidade": "Cachoeira dos \u00cdndios",
            "lat": -6.9258313,
            "long": -38.6741236,
            "qtd": "1",
            "uf": "PB"
        },
        {
            "cidade": "Cajazeiras",
            "lat": -6.8897071,
            "long": -38.5612185,
            "qtd": "5",
            "uf": "PB"
        },
        {
            "cidade": "Campina Grande",
            "lat": -7.2290752,
            "long": -35.8808337,
            "qtd": "60",
            "uf": "PB"
        },
        {
            "cidade": "Catol\u00e9 do Rocha",
            "lat": -6.349022799999999,
            "long": -37.7461208,
            "qtd": "2",
            "uf": "PB"
        },
        {
            "cidade": "Cubati",
            "lat": -6.8705872,
            "long": -36.3281377,
            "qtd": "1",
            "uf": "PB"
        },
        {
            "cidade": "Esperan\u00e7a",
            "lat": -7.020473099999999,
            "long": -35.8574649,
            "qtd": "9",
            "uf": "PB"
        },
        {
            "cidade": "Guarabira",
            "lat": -6.8512654,
            "long": -35.4922717,
            "qtd": "10",
            "uf": "PB"
        },
        {
            "cidade": "Jo\u00e3o Pessoa",
            "lat": -7.119495799999999,
            "long": -34.8450118,
            "qtd": "101",
            "uf": "PB"
        },
        {
            "cidade": "Juazeirinho",
            "lat": -7.069346599999999,
            "long": -36.5794208,
            "qtd": "2",
            "uf": "PB"
        },
        {
            "cidade": "Nazarezinho",
            "lat": -6.9346052,
            "long": -38.3376483,
            "qtd": "2",
            "uf": "PB"
        },
        {
            "cidade": "Parari",
            "lat": -7.3036997,
            "long": -36.6741487,
            "qtd": "1",
            "uf": "PB"
        },
        {
            "cidade": "Patos",
            "lat": -7.0192238,
            "long": -37.2750691,
            "qtd": "3",
            "uf": "PB"
        },
        {
            "cidade": "Pedra Lavrada",
            "lat": -6.7918297,
            "long": -36.4147889,
            "qtd": "4",
            "uf": "PB"
        },
        {
            "cidade": "Picu\u00ed",
            "lat": -6.463927200000001,
            "long": -36.3064595,
            "qtd": "1",
            "uf": "PB"
        },
        {
            "cidade": "Po\u00e7o de Jos\u00e9 de Moura",
            "lat": -6.5742584,
            "long": -38.5113258,
            "qtd": "1",
            "uf": "PB"
        },
        {
            "cidade": "Pombal",
            "lat": -6.7708458,
            "long": -37.7973839,
            "qtd": "1",
            "uf": "PB"
        },
        {
            "cidade": "Santa Luzia",
            "lat": -6.8717535,
            "long": -36.9213608,
            "qtd": "2",
            "uf": "PB"
        },
        {
            "cidade": "S\u00e3o Bento",
            "lat": -6.4525359,
            "long": -37.4894776,
            "qtd": "1",
            "uf": "PB"
        },
        {
            "cidade": "S\u00e3o Jos\u00e9 de Piranhas",
            "lat": -7.1191546,
            "long": -38.4993817,
            "qtd": "1",
            "uf": "PB"
        },
        {
            "cidade": "S\u00e3o Jos\u00e9 de Princesa",
            "lat": -7.706713700000001,
            "long": -38.0948759,
            "qtd": "2",
            "uf": "PB"
        },
        {
            "cidade": "S\u00e3o Jos\u00e9 do Bonfim",
            "lat": -7.1618891,
            "long": -37.3084765,
            "qtd": "1",
            "uf": "PB"
        },
        {
            "cidade": "Sousa",
            "lat": -6.762525399999999,
            "long": -38.224935,
            "qtd": "1",
            "uf": "PB"
        },
        {
            "cidade": "Sum\u00e9",
            "lat": -7.6714785,
            "long": -36.8781716,
            "qtd": "3",
            "uf": "PB"
        },
        {
            "cidade": "Teixeira",
            "lat": -7.2212972,
            "long": -37.2523558,
            "qtd": "2",
            "uf": "PB"
        },
        {
            "cidade": "Ten\u00f3rio",
            "lat": -6.9385901,
            "long": -36.6296349,
            "qtd": "1",
            "uf": "PB"
        },
        {
            "cidade": "Triunfo",
            "lat": -6.5791686,
            "long": -38.597656,
            "qtd": "2",
            "uf": "PB"
        },
        {
            "cidade": "Uira\u00fana",
            "lat": -6.5212442,
            "long": -38.4129524,
            "qtd": "3",
            "uf": "PB"
        },
        {
            "cidade": "Vieir\u00f3polis",
            "lat": -6.544301099999999,
            "long": -38.2773207,
            "qtd": "1",
            "uf": "PB"
        },
        {
            "cidade": "Afogados da Ingazeira",
            "lat": -7.747261599999999,
            "long": -37.6173695,
            "qtd": "19",
            "uf": "PE"
        },
        {
            "cidade": "Afr\u00e2nio",
            "lat": -8.5164821,
            "long": -41.0082651,
            "qtd": "5",
            "uf": "PE"
        },
        {
            "cidade": "Altinho",
            "lat": -8.488021999999999,
            "long": -36.0597471,
            "qtd": "4",
            "uf": "PE"
        },
        {
            "cidade": "Arcoverde",
            "lat": "",
            "long": "",
            "qtd": "4",
            "uf": "PE"
        },
        {
            "cidade": "Barreiros",
            "lat": -8.8325814,
            "long": -35.2807624,
            "qtd": "5",
            "uf": "PE"
        },
        {
            "cidade": "Belo Jardim",
            "lat": -8.3357786,
            "long": -36.4235973,
            "qtd": "4",
            "uf": "PE"
        },
        {
            "cidade": "Brejinho",
            "lat": -7.3394239,
            "long": -37.3292861,
            "qtd": "3",
            "uf": "PE"
        },
        {
            "cidade": "Cabo de Santo Agostinho",
            "lat": -8.2794398,
            "long": -35.0304219,
            "qtd": "7",
            "uf": "PE"
        },
        {
            "cidade": "Cabrob\u00f3",
            "lat": -8.5082573,
            "long": -39.310256,
            "qtd": "2",
            "uf": "PE"
        },
        {
            "cidade": "Camaragibe",
            "lat": -8.023920700000001,
            "long": -34.9784672,
            "qtd": "1",
            "uf": "PE"
        },
        {
            "cidade": "Camutanga",
            "lat": -7.4086837,
            "long": -35.2748665,
            "qtd": "2",
            "uf": "PE"
        },
        {
            "cidade": "Carpina",
            "lat": -7.845017799999999,
            "long": -35.243718,
            "qtd": "1",
            "uf": "PE"
        },
        {
            "cidade": "Caruaru",
            "lat": -8.276017999999999,
            "long": -35.9819367,
            "qtd": "104",
            "uf": "PE"
        },
        {
            "cidade": "Dormentes",
            "lat": -8.456223999999999,
            "long": -40.5533995,
            "qtd": "5",
            "uf": "PE"
        },
        {
            "cidade": "Garanhuns",
            "lat": -8.882855100000002,
            "long": -36.4969127,
            "qtd": "2",
            "uf": "PE"
        },
        {
            "cidade": "Gl\u00f3ria do Goit\u00e1",
            "lat": -7.9995755,
            "long": -35.2947008,
            "qtd": "4",
            "uf": "PE"
        },
        {
            "cidade": "Gravat\u00e1",
            "lat": -8.2116007,
            "long": -35.5677787,
            "qtd": "1",
            "uf": "PE"
        },
        {
            "cidade": "Ipojuca",
            "lat": -8.4627496,
            "long": -35.0828588,
            "qtd": "1",
            "uf": "PE"
        },
        {
            "cidade": "Itapissuma",
            "lat": -7.749314499999999,
            "long": -34.917581,
            "qtd": "2",
            "uf": "PE"
        },
        {
            "cidade": "Jaboat\u00e3o dos Guararapes",
            "lat": -8.1688125,
            "long": -34.920874,
            "qtd": "6",
            "uf": "PE"
        },
        {
            "cidade": "Jata\u00faba",
            "lat": -7.990716599999999,
            "long": -36.4938251,
            "qtd": "1",
            "uf": "PE"
        },
        {
            "cidade": "Limoeiro",
            "lat": -7.877335,
            "long": -35.4450996,
            "qtd": "5",
            "uf": "PE"
        },
        {
            "cidade": "Moreno",
            "lat": -8.1074357,
            "long": -35.1045175,
            "qtd": "2",
            "uf": "PE"
        },
        {
            "cidade": "Olinda",
            "lat": -7.990632100000001,
            "long": -34.8416598,
            "qtd": "3",
            "uf": "PE"
        },
        {
            "cidade": "Passira",
            "lat": -7.975731499999999,
            "long": -35.5824098,
            "qtd": "1",
            "uf": "PE"
        },
        {
            "cidade": "Paudalho",
            "lat": -7.899192200000001,
            "long": -35.1730583,
            "qtd": "2",
            "uf": "PE"
        },
        {
            "cidade": "Pesqueira",
            "lat": -8.358181,
            "long": -36.6980333,
            "qtd": "1",
            "uf": "PE"
        },
        {
            "cidade": "Petrolina",
            "lat": -9.389083,
            "long": -40.5030961,
            "qtd": "4",
            "uf": "PE"
        },
        {
            "cidade": "Recife",
            "lat": -8.0522404,
            "long": -34.9286096,
            "qtd": "293",
            "uf": "PE"
        },
        {
            "cidade": "Salgueiro",
            "lat": -8.072506599999999,
            "long": -39.1268089,
            "qtd": "3",
            "uf": "PE"
        },
        {
            "cidade": "Santa Cruz do Capibaribe",
            "lat": -7.948433099999999,
            "long": -36.2064182,
            "qtd": "2",
            "uf": "PE"
        },
        {
            "cidade": "S\u00e3o Bento do Una",
            "lat": -8.523630599999999,
            "long": -36.4431999,
            "qtd": "4",
            "uf": "PE"
        },
        {
            "cidade": "S\u00e3o Jos\u00e9 do Belmonte",
            "lat": -7.8655007,
            "long": -38.7601861,
            "qtd": "6",
            "uf": "PE"
        },
        {
            "cidade": "S\u00e3o Jos\u00e9 do Egito",
            "lat": -7.4686612,
            "long": -37.2746574,
            "qtd": "4",
            "uf": "PE"
        },
        {
            "cidade": "Surubim",
            "lat": -7.854282899999999,
            "long": -35.7630474,
            "qtd": "1",
            "uf": "PE"
        },
        {
            "cidade": "Tabira",
            "lat": -7.584690900000001,
            "long": -37.5381606,
            "qtd": "4",
            "uf": "PE"
        },
        {
            "cidade": "Timba\u00faba",
            "lat": -7.5090469,
            "long": -35.317997,
            "qtd": "6",
            "uf": "PE"
        },
        {
            "cidade": "Tracunha\u00e9m",
            "lat": -7.8031329,
            "long": -35.237223,
            "qtd": "2",
            "uf": "PE"
        },
        {
            "cidade": "Alto Long\u00e1",
            "lat": -5.3344097,
            "long": -42.1572702,
            "qtd": "2",
            "uf": "PI"
        },
        {
            "cidade": "Angical do Piau\u00ed",
            "lat": -6.1032883,
            "long": -42.7662325,
            "qtd": "6",
            "uf": "PI"
        },
        {
            "cidade": "Bom Jesus",
            "lat": -9.0718029,
            "long": -44.3596741,
            "qtd": "2",
            "uf": "PI"
        },
        {
            "cidade": "Castelo do Piau\u00ed",
            "lat": -5.323618,
            "long": -41.5495442,
            "qtd": "4",
            "uf": "PI"
        },
        {
            "cidade": "Cocal",
            "lat": -3.473168,
            "long": -41.5549927,
            "qtd": "1",
            "uf": "PI"
        },
        {
            "cidade": "Oeiras",
            "lat": -7.014662299999999,
            "long": -42.1255944,
            "qtd": "8",
            "uf": "PI"
        },
        {
            "cidade": "Parna\u00edba",
            "lat": -2.9055447,
            "long": -41.7733626,
            "qtd": "13",
            "uf": "PI"
        },
        {
            "cidade": "Paulistana",
            "lat": -8.136159,
            "long": -41.1416715,
            "qtd": "2",
            "uf": "PI"
        },
        {
            "cidade": "Pedro II",
            "lat": -4.4338427,
            "long": -41.4537623,
            "qtd": "1",
            "uf": "PI"
        },
        {
            "cidade": "Picos",
            "lat": -7.077626,
            "long": -41.4674341,
            "qtd": "27",
            "uf": "PI"
        },
        {
            "cidade": "Piripiri",
            "lat": -4.2646698,
            "long": -41.7783795,
            "qtd": "2",
            "uf": "PI"
        },
        {
            "cidade": "S\u00e3o Jo\u00e3o da Fronteira",
            "lat": -3.9360294,
            "long": -41.25956619999999,
            "qtd": "5",
            "uf": "PI"
        },
        {
            "cidade": "S\u00e3o Jo\u00e3o do Piau\u00ed",
            "lat": -8.355141099999999,
            "long": -42.2564275,
            "qtd": "7",
            "uf": "PI"
        },
        {
            "cidade": "Teresina",
            "lat": -5.0920108,
            "long": -42.80375970000001,
            "qtd": "117",
            "uf": "PI"
        },
        {
            "cidade": "Uru\u00e7u\u00ed",
            "lat": -7.741486099999999,
            "long": -44.5501935,
            "qtd": "4",
            "uf": "PI"
        },
        {
            "cidade": "Apucarana",
            "lat": -23.5504385,
            "long": -51.4639716,
            "qtd": "2",
            "uf": "PR"
        },
        {
            "cidade": "Arapongas",
            "lat": "",
            "long": "",
            "qtd": "1",
            "uf": "PR"
        },
        {
            "cidade": "Arauc\u00e1ria",
            "lat": -25.586431,
            "long": -49.4052251,
            "qtd": "3",
            "uf": "PR"
        },
        {
            "cidade": "Braganey",
            "lat": -24.818396,
            "long": -53.1189326,
            "qtd": "3",
            "uf": "PR"
        },
        {
            "cidade": "Campina Grande do Sul",
            "lat": -25.3049206,
            "long": -49.0541427,
            "qtd": "2",
            "uf": "PR"
        },
        {
            "cidade": "Campo Largo",
            "lat": -25.4596855,
            "long": -49.5273149,
            "qtd": "14",
            "uf": "PR"
        },
        {
            "cidade": "Cascavel",
            "lat": -24.9577771,
            "long": -53.45951119999999,
            "qtd": "2",
            "uf": "PR"
        },
        {
            "cidade": "Castro",
            "lat": -24.8054741,
            "long": -49.9982361,
            "qtd": "1",
            "uf": "PR"
        },
        {
            "cidade": "C\u00e9u Azul",
            "lat": -25.1466265,
            "long": -53.8466838,
            "qtd": "3",
            "uf": "PR"
        },
        {
            "cidade": "Cidade Ga\u00facha",
            "lat": -23.3826256,
            "long": -52.9448089,
            "qtd": "1",
            "uf": "PR"
        },
        {
            "cidade": "Colombo",
            "lat": -25.2929784,
            "long": -49.22663439999999,
            "qtd": "2",
            "uf": "PR"
        },
        {
            "cidade": "Corn\u00e9lio Proc\u00f3pio",
            "lat": -23.1794735,
            "long": -50.64748669999999,
            "qtd": "1",
            "uf": "PR"
        },
        {
            "cidade": "Coronel Vivida",
            "lat": -25.979821,
            "long": -52.5678016,
            "qtd": "4",
            "uf": "PR"
        },
        {
            "cidade": "Curitiba",
            "lat": -25.4808762,
            "long": -49.3044253,
            "qtd": "50",
            "uf": "PR"
        },
        {
            "cidade": "Foz do Igua\u00e7u",
            "lat": -25.5163356,
            "long": -54.58537639999999,
            "qtd": "1",
            "uf": "PR"
        },
        {
            "cidade": "Francisco Beltr\u00e3o",
            "lat": -26.0779448,
            "long": -53.05199,
            "qtd": "8",
            "uf": "PR"
        },
        {
            "cidade": "Ibaiti",
            "lat": -23.8124402,
            "long": -50.3069088,
            "qtd": "3",
            "uf": "PR"
        },
        {
            "cidade": "Inaj\u00e1",
            "lat": -22.7519171,
            "long": -52.1998476,
            "qtd": "8",
            "uf": "PR"
        },
        {
            "cidade": "Ipiranga",
            "lat": -25.0253304,
            "long": -50.5835338,
            "qtd": "1",
            "uf": "PR"
        },
        {
            "cidade": "Irati",
            "lat": -25.4756137,
            "long": -50.8040271,
            "qtd": "2",
            "uf": "PR"
        },
        {
            "cidade": "Jaguaria\u00edva",
            "lat": -24.2606822,
            "long": -49.7253119,
            "qtd": "3",
            "uf": "PR"
        },
        {
            "cidade": "Londrina",
            "lat": -23.3044524,
            "long": -51.1695824,
            "qtd": "21",
            "uf": "PR"
        },
        {
            "cidade": "Maring\u00e1",
            "lat": -23.4209995,
            "long": -51.9330558,
            "qtd": "16",
            "uf": "PR"
        },
        {
            "cidade": "Paranava\u00ed",
            "lat": -23.0821226,
            "long": -52.4622155,
            "qtd": "6",
            "uf": "PR"
        },
        {
            "cidade": "Pato Branco",
            "lat": -26.2297202,
            "long": -52.6711356,
            "qtd": "5",
            "uf": "PR"
        },
        {
            "cidade": "Ponta Grossa",
            "lat": -25.0949322,
            "long": -50.1545956,
            "qtd": "13",
            "uf": "PR"
        },
        {
            "cidade": "S\u00e3o Mateus do Sul",
            "lat": -25.8681839,
            "long": -50.3842316,
            "qtd": "1",
            "uf": "PR"
        },
        {
            "cidade": "Umuarama",
            "lat": -23.7661064,
            "long": -53.3206105,
            "qtd": "24",
            "uf": "PR"
        },
        {
            "cidade": "Uni\u00e3o da Vit\u00f3ria",
            "lat": -26.2269867,
            "long": -51.0582104,
            "qtd": "1",
            "uf": "PR"
        },
        {
            "cidade": "Wenceslau Braz",
            "lat": -23.8714093,
            "long": -49.8024588,
            "qtd": "5",
            "uf": "PR"
        },
        {
            "cidade": "NULL",
            "lat": -22.9068467,
            "long": -43.1728965,
            "qtd": "4",
            "uf": "RJ"
        },
        {
            "cidade": "Araruama",
            "lat": -22.8728058,
            "long": -42.3413939,
            "qtd": "2",
            "uf": "RJ"
        },
        {
            "cidade": "Arma\u00e7\u00e3o dos B\u00fazios",
            "lat": -22.7563906,
            "long": -41.889042,
            "qtd": "1",
            "uf": "RJ"
        },
        {
            "cidade": "Bom Jesus do Itabapoana",
            "lat": -21.1367724,
            "long": -41.67567,
            "qtd": "4",
            "uf": "RJ"
        },
        {
            "cidade": "Campos dos Goytacazes",
            "lat": -21.7587303,
            "long": -41.3267187,
            "qtd": "5",
            "uf": "RJ"
        },
        {
            "cidade": "Duque de Caxias",
            "lat": -22.7862985,
            "long": -43.3053106,
            "qtd": "1",
            "uf": "RJ"
        },
        {
            "cidade": "Itagua\u00ed",
            "lat": -22.8632126,
            "long": -43.7779144,
            "qtd": "8",
            "uf": "RJ"
        },
        {
            "cidade": "Maca\u00e9",
            "lat": -22.3233696,
            "long": -41.9593241,
            "qtd": "4",
            "uf": "RJ"
        },
        {
            "cidade": "Maric\u00e1",
            "lat": -22.9160994,
            "long": -42.819192,
            "qtd": "17",
            "uf": "RJ"
        },
        {
            "cidade": "Miracema",
            "lat": -21.4115391,
            "long": -42.1923991,
            "qtd": "1",
            "uf": "RJ"
        },
        {
            "cidade": "Nil\u00f3polis",
            "lat": -22.8098254,
            "long": -43.4193812,
            "qtd": "2",
            "uf": "RJ"
        },
        {
            "cidade": "Niter\u00f3i",
            "lat": -22.8859267,
            "long": -43.1152587,
            "qtd": "22",
            "uf": "RJ"
        },
        {
            "cidade": "Nova Igua\u00e7u",
            "lat": -22.7561319,
            "long": -43.4607419,
            "qtd": "4",
            "uf": "RJ"
        },
        {
            "cidade": "Paracambi",
            "lat": -22.6083065,
            "long": -43.7112547,
            "qtd": "6",
            "uf": "RJ"
        },
        {
            "cidade": "Petr\u00f3polis",
            "lat": -22.5112498,
            "long": -43.1779306,
            "qtd": "8",
            "uf": "RJ"
        },
        {
            "cidade": "Pira\u00ed",
            "lat": -22.6277604,
            "long": -43.9034882,
            "qtd": "7",
            "uf": "RJ"
        },
        {
            "cidade": "Porto Real",
            "lat": -22.4179651,
            "long": -44.2955901,
            "qtd": "1",
            "uf": "RJ"
        },
        {
            "cidade": "Resende",
            "lat": -22.4713608,
            "long": -44.453408,
            "qtd": "2",
            "uf": "RJ"
        },
        {
            "cidade": "Rio das Ostras",
            "lat": -22.4650817,
            "long": -41.9394892,
            "qtd": "1",
            "uf": "RJ"
        },
        {
            "cidade": "Rio de Janeiro",
            "lat": -22.9068467,
            "long": -43.1728965,
            "qtd": "99",
            "uf": "RJ"
        },
        {
            "cidade": "S\u00e3o Gon\u00e7alo",
            "lat": -22.8272883,
            "long": -43.0637646,
            "qtd": "8",
            "uf": "RJ"
        },
        {
            "cidade": "S\u00e3o Jo\u00e3o de Meriti",
            "lat": -22.7907116,
            "long": -43.3699377,
            "qtd": "7",
            "uf": "RJ"
        },
        {
            "cidade": "Sapucaia",
            "lat": "",
            "long": "",
            "qtd": "1",
            "uf": "RJ"
        },
        {
            "cidade": "Vassouras",
            "lat": -22.4087928,
            "long": -43.67021889999999,
            "qtd": "14",
            "uf": "RJ"
        },
        {
            "cidade": "Volta Redonda",
            "lat": -22.4871853,
            "long": -44.0770134,
            "qtd": "8",
            "uf": "RJ"
        },
        {
            "cidade": "A\u00e7u",
            "lat": -5.5755928,
            "long": -36.9150235,
            "qtd": "3",
            "uf": "RN"
        },
        {
            "cidade": "Alto do Rodrigues",
            "lat": -5.3675174,
            "long": -36.7172882,
            "qtd": "6",
            "uf": "RN"
        },
        {
            "cidade": "Apodi",
            "lat": -5.6623147,
            "long": -37.7988002,
            "qtd": "15",
            "uf": "RN"
        },
        {
            "cidade": "Ba\u00eda Formosa",
            "lat": -6.3710438,
            "long": -35.0050456,
            "qtd": "3",
            "uf": "RN"
        },
        {
            "cidade": "Caic\u00f3",
            "lat": -6.4599655,
            "long": -37.0936867,
            "qtd": "11",
            "uf": "RN"
        },
        {
            "cidade": "Canguaretama",
            "lat": -6.3810573,
            "long": -35.1301043,
            "qtd": "3",
            "uf": "RN"
        },
        {
            "cidade": "Cear\u00e1 Mirim",
            "lat": -5.6395379,
            "long": -35.4237292,
            "qtd": "5",
            "uf": "RN"
        },
        {
            "cidade": "Extremoz",
            "lat": -5.7059334,
            "long": -35.3032689,
            "qtd": "1",
            "uf": "RN"
        },
        {
            "cidade": "Governador Dix Sept Rosado",
            "lat": -5.457886999999999,
            "long": -37.5211978,
            "qtd": "1",
            "uf": "RN"
        },
        {
            "cidade": "Ipangua\u00e7u",
            "lat": -5.5151271,
            "long": -36.8250274,
            "qtd": "25",
            "uf": "RN"
        },
        {
            "cidade": "Janu\u00e1rio Cicco",
            "lat": -6.157464699999999,
            "long": -35.6037281,
            "qtd": "3",
            "uf": "RN"
        },
        {
            "cidade": "Jo\u00e3o C\u00e2mara",
            "lat": -5.5347653,
            "long": -35.8150838,
            "qtd": "1",
            "uf": "RN"
        },
        {
            "cidade": "Lajes",
            "lat": -5.4472238,
            "long": -36.1672437,
            "qtd": "17",
            "uf": "RN"
        },
        {
            "cidade": "Maca\u00edba",
            "lat": -5.8579697,
            "long": -35.3536252,
            "qtd": "10",
            "uf": "RN"
        },
        {
            "cidade": "Macau",
            "lat": -5.1129194,
            "long": -36.6337798,
            "qtd": "3",
            "uf": "RN"
        },
        {
            "cidade": "Major Sales",
            "lat": -6.3998855,
            "long": -38.3243628,
            "qtd": "2",
            "uf": "RN"
        },
        {
            "cidade": "Mossor\u00f3",
            "lat": -5.1841285,
            "long": -37.3477805,
            "qtd": "193",
            "uf": "RN"
        },
        {
            "cidade": "Natal",
            "lat": -5.7792569,
            "long": -35.200916,
            "qtd": "135",
            "uf": "RN"
        },
        {
            "cidade": "Nova Cruz",
            "lat": -6.4472391,
            "long": -35.4124355,
            "qtd": "19",
            "uf": "RN"
        },
        {
            "cidade": "Parnamirim",
            "lat": -5.911554499999999,
            "long": -35.2713164,
            "qtd": "13",
            "uf": "RN"
        },
        {
            "cidade": "Pau dos Ferros",
            "lat": -6.1123761,
            "long": -38.2051722,
            "qtd": "66",
            "uf": "RN"
        },
        {
            "cidade": "Pend\u00eancias",
            "lat": -5.2574272,
            "long": -36.7170745,
            "qtd": "2",
            "uf": "RN"
        },
        {
            "cidade": "Santa Cruz",
            "lat": -6.2239726,
            "long": -36.0202696,
            "qtd": "24",
            "uf": "RN"
        },
        {
            "cidade": "S\u00e3o Bento do Trairi",
            "lat": -6.342949,
            "long": -36.083043,
            "qtd": "2",
            "uf": "RN"
        },
        {
            "cidade": "S\u00e3o Gon\u00e7alo do Amarante",
            "lat": -5.7852461,
            "long": -35.3288131,
            "qtd": "11",
            "uf": "RN"
        },
        {
            "cidade": "S\u00e3o Paulo do Potengi",
            "lat": -5.892470599999999,
            "long": -35.7660034,
            "qtd": "32",
            "uf": "RN"
        },
        {
            "cidade": "Tenente Laurentino Cruz",
            "lat": -6.147643800000001,
            "long": -36.7192479,
            "qtd": "1",
            "uf": "RN"
        },
        {
            "cidade": "Touros",
            "lat": -5.1961669,
            "long": -35.4635381,
            "qtd": "3",
            "uf": "RN"
        },
        {
            "cidade": "V\u00e1rzea",
            "lat": -6.346813999999999,
            "long": -35.3734996,
            "qtd": "3",
            "uf": "RN"
        },
        {
            "cidade": "Espig\u00e3o d Oeste",
            "lat": -11.5323149,
            "long": -61.0169967,
            "qtd": "1",
            "uf": "RO"
        },
        {
            "cidade": "Guajar\u00e1Mirim",
            "lat": -10.789321,
            "long": -65.3301049,
            "qtd": "2",
            "uf": "RO"
        },
        {
            "cidade": "Porto Velho",
            "lat": -8.761160499999999,
            "long": -63.9004303,
            "qtd": "52",
            "uf": "RO"
        },
        {
            "cidade": "Presidente M\u00e9dici",
            "lat": -11.1690838,
            "long": -61.9015332,
            "qtd": "1",
            "uf": "RO"
        },
        {
            "cidade": "Rolim de Moura",
            "lat": -11.7256841,
            "long": -61.7781191,
            "qtd": "1",
            "uf": "RO"
        },
        {
            "cidade": "Vilhena",
            "lat": -12.7414031,
            "long": -60.1304566,
            "qtd": "2",
            "uf": "RO"
        },
        {
            "cidade": "Boa Vista",
            "lat": 2.8235098,
            "long": -60.6758331,
            "qtd": "56",
            "uf": "RR"
        },
        {
            "cidade": "Caracara\u00ed",
            "lat": 1.8132347,
            "long": -61.1353892,
            "qtd": "2",
            "uf": "RR"
        },
        {
            "cidade": "Rorain\u00f3polis",
            "lat": 0.2619011,
            "long": -60.9540073,
            "qtd": "1",
            "uf": "RR"
        },
        {
            "cidade": "Arroio dos Ratos",
            "lat": -30.0880438,
            "long": -51.7279954,
            "qtd": "3",
            "uf": "RS"
        },
        {
            "cidade": "Barra do Quara\u00ed",
            "lat": -30.2072261,
            "long": -57.55196910000001,
            "qtd": "1",
            "uf": "RS"
        },
        {
            "cidade": "Bento Gon\u00e7alves",
            "lat": -29.1667089,
            "long": -51.5169861,
            "qtd": "6",
            "uf": "RS"
        },
        {
            "cidade": "Cachoeira do Sul",
            "lat": -30.0218463,
            "long": -52.9176936,
            "qtd": "2",
            "uf": "RS"
        },
        {
            "cidade": "Caibat\u00e9",
            "lat": -28.2876223,
            "long": -54.6392254,
            "qtd": "1",
            "uf": "RS"
        },
        {
            "cidade": "Campo Bom",
            "lat": -29.6751942,
            "long": -51.0611099,
            "qtd": "1",
            "uf": "RS"
        },
        {
            "cidade": "Candel\u00e1ria",
            "lat": -29.6690808,
            "long": -52.78827949999999,
            "qtd": "4",
            "uf": "RS"
        },
        {
            "cidade": "Canoas",
            "lat": -29.9188183,
            "long": -51.1585398,
            "qtd": "11",
            "uf": "RS"
        },
        {
            "cidade": "Caxias do Sul",
            "lat": -29.1634031,
            "long": -51.1796683,
            "qtd": "8",
            "uf": "RS"
        },
        {
            "cidade": "Chapada",
            "lat": -28.0576777,
            "long": -53.0684395,
            "qtd": "8",
            "uf": "RS"
        },
        {
            "cidade": "Coqueiros do Sul",
            "lat": "",
            "long": "",
            "qtd": "1",
            "uf": "RS"
        },
        {
            "cidade": "Eldorado do Sul",
            "lat": -30.000286,
            "long": -51.311859,
            "qtd": "1",
            "uf": "RS"
        },
        {
            "cidade": "Erechim",
            "lat": -27.6349118,
            "long": -52.2735436,
            "qtd": "5",
            "uf": "RS"
        },
        {
            "cidade": "Frederico Westphalen",
            "lat": -27.3607338,
            "long": -53.3963199,
            "qtd": "3",
            "uf": "RS"
        },